[{"name":"O.Noir","tagline":"Eat in total darkness.","mood":["lunch","adventurous"],"popularDays":[],"popularMoment":[],"url":"https://maps.google.com/?cid=10846218657902340389","rating":4.2,"lat":45.5150844,"long":-73.5713464,"opened":{"0":["3"],"1":["3"],"2":["3"],"3":["3"],"4":["3"],"5":["3"],"6":["3"]}},{"name":"Restaurant 3734","tagline":"Trendy resto-bar.","mood":["date","lunch"],"popularDays":[],"popularMoment":[],"url":"https://maps.google.com/?cid=4010323157375628188","rating":4.1,"lat":45.47901909999999,"long":-73.5817833,"opened":{"0":[],"1":[],"2":[],"3":[],"4":[],"5":[],"6":[],"7":[],"8":[],"9":[],"10":[],"11":[]}},{"name":"Fameux Viande Fumée Et Charcuterie","tagline":"Best Smoked meet in town","mood":["lunch","cheap"],"popularDays":[],"popularMoment":[],"url":"https://maps.google.com/?cid=18372544678616410886","rating":3.4,"lat":45.52386099999999,"long":-73.583154,"opened":{"0":["3"],"1":["3"],"2":["3"],"3":["3"],"4":["3"]}},{"name":"La Banquise","tagline":"Breakfasts, poutines and all day, all night.","mood":["lunch","cheap"],"popularDays":[],"popularMoment":[3],"url":"https://maps.google.com/?cid=10356172211970105105","rating":4.3,"lat":45.5253521,"long":-73.5747681,"opened":{"0":["1","2","3","4"]}},{"name":"CINKO","tagline":"Cheap meals for only 5$.","mood":["lunch","cheap","date","work"],"popularDays":[],"popularMoment":[1,2],"url":"https://maps.google.com/?cid=652266601461190956","rating":4,"lat":45.515122,"long":-73.56310119999999,"opened":{"0":["3"],"1":["3"],"2":["3"],"3":["3"],"4":["3"],"5":["3"],"6":["3"]}},{"name":"L’Entrepôt Mont-Royal","tagline":"Delicious beers, cocktails and 5$ food.","mood":["lunch","cheap","bar"],"popularDays":[],"popularMoment":[],"url":"https://maps.google.com/?cid=9468178804528085060","rating":4.2,"lat":45.5276679,"long":-73.579773,"opened":{"0":["3"],"1":["3"],"2":["3"],"3":["3"],"4":["3"],"5":["3"],"6":["3"]}},{"name":"Pizzeria Napoletana","tagline":"Marvelous italien meal","mood":["lunch"],"popularDays":[],"popularMoment":[],"url":"https://maps.google.com/?cid=15802365865580095740","rating":4,"lat":45.5343649,"long":-73.61256139999999,"opened":{"0":["1","2"],"1":["1","2"],"2":["1","2"],"3":["1","2"],"4":["1","2"],"5":["1","2"],"6":["1","2"]}},{"name":"McCarold's","tagline":"Many beers and whiskies ","mood":["lunch","bar","work"],"popularDays":[],"popularMoment":[],"url":"https://maps.google.com/?cid=8333270201535707635","rating":4.2,"lat":45.4966909,"long":-73.6236735,"opened":{"0":["3"],"1":["3"],"2":["3"],"3":["3"],"4":["3"],"5":["3"],"6":["3"]}},{"name":"Restaurant Boustan","tagline":"Montreal's Best Middle‑Eastern Fast Food","mood":["lunch","cheap","work"],"popularDays":[],"popularMoment":[3],"url":"https://maps.google.com/?cid=9633948780008571981","rating":4.1,"lat":45.4980227,"long":-73.5778574,"opened":{"0":[],"1":[],"2":[],"3":[],"4":[],"5":[],"6":[]}},{"name":"Au Pied de Cochon","tagline":"Cooking class or simply eat MEAT","mood":["lunch","money","date","adventurous","learn"],"popularDays":[],"popularMoment":[],"url":"https://maps.google.com/?cid=3500039342510136284","rating":4.4,"lat":45.5221677,"long":-73.5744489,"opened":{"0":["3"],"1":["3"],"2":["3"],"3":["3"],"4":["3"]}},{"name":"Café Chat L'Heureux","tagline":"Cafe for cat lovers","mood":["lazy","animals","date","lunch","adventurous"],"popularDays":[],"popularMoment":[],"url":"https://maps.google.com/?cid=6599632376253183724","rating":4.6,"lat":45.51866380000001,"long":-73.57764689999999,"opened":{"0":["1"],"1":["1"],"2":["1"],"3":["1"],"4":["1","2"],"5":["1","2"]}},{"name":"Café Venosa","tagline":"A nice sip of cofee and feline company","mood":["lazy","animals","date","lunch","adventurous"],"popularDays":[],"popularMoment":[],"url":"https://maps.google.com/?cid=1928962374377799429","rating":4.5,"lat":45.5237658,"long":-73.5818046,"opened":{"0":["1","2"],"1":["1"],"2":["1"],"3":["1"],"4":["1"],"5":["1","2"],"6":["1","2"]}},{"name":"El Rey del Taco","tagline":"Discover authentic Mexican food","mood":["lunch","cheap"],"popularDays":[],"popularMoment":[],"url":"https://maps.google.com/?cid=17877417754106546111","rating":4.1,"lat":45.5363912,"long":-73.61583879999999,"opened":{"0":["1","2"],"1":["1","2"],"2":["1","2"],"3":["1","2"],"4":["1","2"],"5":["1","2"],"6":["1","2"]}},{"name":"L'GROS LUXE","tagline":"Resto bar in the heart of Montreal's Plateau","mood":["lunch","date","bar","work"],"popularDays":[],"popularMoment":[],"url":"https://maps.google.com/?cid=8179524625016578589","rating":3.9,"lat":45.5218325,"long":-73.5702142,"opened":{"0":[],"1":[],"2":[],"3":[],"4":[],"5":[],"6":[],"7":[],"8":[]}},{"name":"Poutineville","tagline":"So many poutine choices!","mood":["lunch"],"popularDays":[],"popularMoment":[],"url":"https://maps.google.com/?cid=17045215299564167988","rating":4.3,"lat":45.5232038,"long":-73.5612988,"opened":{"0":["1","2"],"1":["1","2"],"2":["1","2"],"3":["1","2"],"4":["3"],"5":[],"6":[]}},{"name":"Les 3 Brasseurs","tagline":"Beer brewed on site!","mood":["bar","lunch"],"popularDays":[],"popularMoment":[],"url":"https://maps.google.com/?cid=9224269584721465708","rating":3.8,"lat":45.5067517,"long":-73.55307780000001,"opened":{"0":["3"],"1":["3"],"2":["3"],"3":["3"],"4":["3"],"5":["3"],"6":["3"]}},{"name":"La Belle & La Boeuf","tagline":"A nice and varied menu for everybody.","mood":["lunch","date"],"popularDays":[],"popularMoment":[],"url":"https://maps.google.com/?cid=2971399611706768493","rating":4,"lat":45.4942124,"long":-73.5785424,"opened":{"0":["3"],"1":["3"],"2":["3"],"3":["3"],"4":["3"],"5":["3"],"6":["3"]}},{"name":"Auberge Du Dragon Rouge","tagline":"Throwback a thousand years ago at the auberge.","mood":["lunch","money","adventurous"],"popularDays":[],"popularMoment":[],"url":"https://maps.google.com/?cid=16815293908799315135","rating":4.6,"lat":45.547288,"long":-73.64141099999999,"opened":{"0":[],"1":["2"],"2":[],"3":[],"4":[],"5":[],"6":[],"7":[],"8":[],"9":[],"10":[],"11":["2"]}},{"name":"Le Filet","tagline":"One of the best restaurants in Montreal.","mood":["money","lunch"],"popularDays":[],"popularMoment":[],"url":"https://maps.google.com/?cid=906425960268465507","rating":4.6,"lat":45.5180618,"long":-73.5885507,"opened":{"0":[],"1":[],"2":[],"3":[],"4":[]}},{"name":"Lola Rosa Café","tagline":"Good vegetarian comfort food","mood":["lunch","work"],"popularDays":[],"popularMoment":[],"url":"https://maps.google.com/?cid=8737629611976017673","rating":4.5,"lat":45.50733899999999,"long":-73.5758183,"opened":{"0":["1","2"],"1":["1","2"],"2":["1","2"],"3":["1","2"],"4":["1","2"],"5":["1","2"],"6":["1","2"]}},{"name":"Le Doggy Café","tagline":"Bring your own dog.","mood":["date","animals","lunch","adventurous"],"popularDays":[],"popularMoment":[],"url":"https://maps.google.com/?cid=15562596611297590220","rating":4.5,"lat":45.5329024,"long":-73.5741412,"opened":{"0":["1"],"1":["1"],"2":["1"],"3":["1"],"4":["1"],"5":["1"],"6":["1"]}},{"name":"La Panthère Verte / The Green Panther","tagline":"Not Only the Best Falafel in Town…","mood":["lunch","cheap"],"popularDays":[],"popularMoment":[],"url":"https://maps.google.com/?cid=6939970597674140011","rating":4.5,"lat":45.4841995,"long":-73.6291044,"opened":{"0":["1"],"1":["1","2"],"2":["1","2"],"3":["1","2"],"4":["1","2"],"5":["1","2"],"6":["1","2"]}},{"name":"Céramic Café Studio Montréal","tagline":"Bring your date or a friend and express yourself!","mood":["lunch","date","artsy","lazy"],"popularDays":[],"popularMoment":[],"url":"https://maps.google.com/?cid=11678809713847697044","rating":4,"lat":45.5226467,"long":-73.5804306,"opened":{"0":["1","2"],"1":["1","2"],"2":["1","2"],"3":["1","2"],"4":["3"],"5":["3"],"6":["3"]}},{"name":"Station des Sports","tagline":"Sport station in town!","mood":["sport","lunch","bar"],"popularDays":[],"popularMoment":[],"url":"https://maps.google.com/?cid=14572578762502744843","rating":3.3,"lat":45.4917836,"long":-73.58178190000001,"opened":{"0":["3"],"1":["3"],"2":["3"],"3":["3"],"4":["3"],"5":["3"],"6":["3"]}},{"name":"Caravane Café","tagline":"Hipst ambiance in Cote des Neiges.","mood":["lunch","study","lazy","date","work"],"popularDays":[],"popularMoment":[],"url":"https://maps.google.com/?cid=3278238935885951124","rating":4.4,"lat":45.4972885,"long":-73.62251619999999,"opened":{"0":["1","2"],"1":["0","1","2"],"2":["0","1","2"],"3":["0","1","2"],"4":["0","1","2"],"5":["0","1","2"],"6":["1","2"]}},{"name":"Café Noir Crémazie","tagline":"Roasted love","mood":["lunch","study","lazy","date","work"],"popularDays":[],"popularMoment":[],"url":"https://maps.google.com/?cid=12182179185906551","rating":4,"lat":45.54562190000001,"long":-73.6381056,"opened":{"0":["1","2","3","4"]}},{"name":"Café Résonance","tagline":"A trendy place featuring espresso and vegan light meals","mood":["lunch","study","work","lazy"],"popularDays":[],"popularMoment":[],"url":"https://maps.google.com/?cid=11237377514764009247","rating":4.3,"lat":45.5204219,"long":-73.5972148,"opened":{"0":["3"],"1":["3"],"2":["3"],"3":["3"],"4":["3"],"5":["3"],"6":["3"]}},{"name":"Kafein cafe-bar","tagline":"Your one stop for amazing cocktails and artistic events.","mood":["study","artsy","lunch","bar","date"],"popularDays":[],"popularMoment":[],"url":"https://maps.google.com/?cid=1096005886903807921","rating":4.2,"lat":45.49720540000001,"long":-73.5771157,"opened":{"0":["1"],"1":["3"],"2":["3"],"3":["3"],"4":["3"],"5":["3"],"6":["3"]}},{"name":"Café Shaughnessy","tagline":"For everytime you need cofee.","mood":["lunch","study","work","lazy"],"popularDays":[],"popularMoment":[],"url":"https://maps.google.com/?cid=4472606821486285722","rating":4.8,"lat":45.4908852,"long":-73.5846213,"opened":{"0":["1"],"1":["0","1"],"2":["0","1"],"3":["0","1"],"4":["0","1"],"5":["0","1"],"6":["1"]}},{"name":"La P'tite Grenouille Montréal","tagline":"Vibrate to the sound of the chansonniers","mood":["cheap","artsy","bar"],"popularDays":[],"popularMoment":[],"url":"https://maps.google.com/?cid=1906563456811471591","rating":4,"lat":45.5128836,"long":-73.5699696,"opened":{"0":["3"],"1":["3"],"2":["3"],"3":["3"],"4":["3"],"5":["3"]}},{"name":"Foufounes Électriques","tagline":"I love rock n' roll...","mood":["cheap","bar","club"],"popularDays":[],"popularMoment":[],"url":"https://maps.google.com/?cid=12629189354025610906","rating":4.1,"lat":45.511035,"long":-73.563243,"opened":{"0":["3"],"1":["3"],"2":["3"],"3":["3"],"4":["3"],"5":["3"],"6":["3"]}},{"name":"Le Belmont","tagline":"Dynamic bar with DJ's and shows.","mood":["artsy","bar","club"],"popularDays":[],"popularMoment":[],"url":"https://maps.google.com/?cid=9235940792358193595","rating":3.8,"lat":45.52011280000001,"long":-73.5861053,"opened":{"0":["3"],"1":["3"]}},{"name":"Fitzroy","tagline":"The place to play billiards and baby foot.","mood":["bar","lunch","sport"],"popularDays":[],"popularMoment":[],"url":"https://maps.google.com/?cid=9617200806629661777","rating":3.4,"lat":45.525241,"long":-73.582145,"opened":{"0":["3"],"1":["3"],"2":["3"],"3":["3"],"4":["3"],"5":["3"],"6":["3"]}},{"name":"Mckibbin's Irish Pub","tagline":"The Irish pub in town","mood":["lunch","bar","work"],"popularDays":[],"popularMoment":[],"url":"https://maps.google.com/?cid=4003474829194366751","rating":4.2,"lat":45.496857,"long":-73.5772339,"opened":{"0":["3"],"1":["3"],"2":["3"],"3":["3"],"4":["3"],"5":["3"],"6":["3"]}},{"name":"Le Sainte-Elisabeth","tagline":"Microbrewery beers and cocktails with a nice terasse.","mood":["bar"],"popularDays":[],"popularMoment":[],"url":"https://maps.google.com/?cid=10051514529163035901","rating":4,"lat":45.512346,"long":-73.562229,"opened":{"0":["3"],"1":["3"],"2":["3"],"3":["3"],"4":["3"],"5":["3"],"6":["3"]}},{"name":"Bar Le Record","tagline":"Back to the 50","mood":["bar","artsy","date"],"popularDays":[],"popularMoment":[],"url":"https://maps.google.com/?cid=5441109865271301072","rating":4.6,"lat":45.543771,"long":-73.620155,"opened":{"0":["3"],"1":["3"],"2":["3"],"3":["3"],"4":["3"],"5":["3"],"6":["3"]}},{"name":"Miss Villeray","tagline":"Monday Miss","mood":["bar","lunch"],"popularDays":[],"popularMoment":[],"url":"https://maps.google.com/?cid=15323537962417614211","rating":4.1,"lat":45.53935920000001,"long":-73.6236911,"opened":{"0":["3"],"1":["3"],"2":["3"],"3":["3"],"4":["3"],"5":["3"],"6":["3"]}},{"name":"Randolph Pub Ludique Quartier Latin","tagline":"The most board games by square feets","mood":["geek","bar"],"popularDays":[],"popularMoment":[],"url":"https://maps.google.com/?cid=15556289686911738033","rating":4.7,"lat":45.51642979999999,"long":-73.5660051,"opened":{"0":["3"],"1":["3"],"2":["3"],"3":["3"],"4":["3"],"5":["3"],"6":["3"]}},{"name":"Dieu du Ciel!","tagline":"Craft brewery and terasse.","mood":["bar","lazy","date"],"popularDays":[],"popularMoment":[],"url":"https://maps.google.com/?cid=2718596132382991104","rating":4.7,"lat":45.5227334,"long":-73.5934397,"opened":{"0":["3"],"1":["3"],"2":["3"],"3":["3"],"4":["3"],"5":["3"],"6":["3"]}},{"name":"Apt. 200","tagline":"A bar you must try","mood":["bar"],"popularDays":[],"popularMoment":[],"url":"https://maps.google.com/?cid=18000206410100333840","rating":3.6,"lat":45.5143729,"long":-73.573365,"opened":{"0":["3"],"1":["3"],"2":["3"],"3":["3"],"4":["3"],"5":["3"],"6":["3"]}},{"name":"TRH-BAR","tagline":"Punk rock bar with a full fledged skate park.","mood":["sport","bar","adventurous","artsy"],"popularDays":[],"popularMoment":[],"url":"https://maps.google.com/?cid=15514103763919835179","rating":3.9,"lat":45.5148635,"long":-73.574325,"opened":{"0":[],"1":[],"2":[]}},{"name":"Complexe Sky","tagline":"Gay bar in montreal with multiple ambiances.","mood":["bar","club"],"popularDays":[],"popularMoment":[],"url":"https://maps.google.com/?cid=12551439294374128152","rating":3.8,"lat":45.520878,"long":-73.5537628,"opened":{"0":["3"],"1":["3"],"2":["3"]}},{"name":"Taverne Saint-Sacrement","tagline":"Nice bar in front of the sanctuaire saint-sacrement","mood":["bar","lunch"],"popularDays":[],"popularMoment":[],"url":"https://maps.google.com/?cid=18003544394009049071","rating":4,"lat":45.5258808,"long":-73.5814658,"opened":{"0":["3"],"1":["3"],"2":["3"],"3":["3"],"4":["3"],"5":["3"],"6":["3"]}},{"name":"2 PIERROTS","tagline":"Cabaret artists ","mood":["bar","artsy"],"popularDays":[],"popularMoment":[],"url":"https://maps.google.com/?cid=2687831810125099188","rating":4.1,"lat":45.5066054,"long":-73.5528927,"opened":{"0":["3"],"1":["3"]}},{"name":"Le Pourvoyeur","tagline":"Gin pub with small meals.","mood":["bar","lunch","date"],"popularDays":[],"popularMoment":[],"url":"https://maps.google.com/?cid=6908086816414479981","rating":4.1,"lat":45.5359941,"long":-73.6163686,"opened":{"0":["3"],"1":["3"],"2":["3"],"3":["3"],"4":["3"],"5":["3"],"6":["3"]}},{"name":"Abreuvoir Bar et Terrasse","tagline":"Sports on TV, night club, terasse... There is something for everybody.","mood":["sports","bar","club"],"popularDays":[],"popularMoment":[],"url":"https://maps.google.com/?cid=14668089707994921111","rating":3.8,"lat":45.5163269,"long":-73.5653368,"opened":{"0":["3"],"1":["3"],"2":["3"],"3":["3"],"4":["3"],"5":["3"],"6":["3"]}},{"name":"Bistro à Jojo","tagline":"Rock and blues bands.","mood":["artsy","bar"],"popularDays":[],"popularMoment":[],"url":"https://maps.google.com/?cid=16989635165847737290","rating":4.2,"lat":45.5150969,"long":-73.5630623,"opened":{"0":["3"],"1":["3"],"2":["3"],"3":["3"],"4":["3"],"5":["3"],"6":["3"]}},{"name":"La Distillerie no.1","tagline":"Amazing cocktails you've probably never tasted before.","mood":["date","money","bar"],"popularDays":[],"popularMoment":[],"url":"https://maps.google.com/?cid=5817992020718484477","rating":4.5,"lat":45.514809,"long":-73.565398,"opened":{"0":["3"],"1":["3"],"2":["3"],"3":["3"],"4":["3"],"5":["3"],"6":["3"]}},{"name":"Café Campus","tagline":"Popular student bar on 3 stories!","mood":["bar","club"],"popularDays":[],"popularMoment":[],"url":"https://maps.google.com/?cid=2487135412711669425","rating":3.7,"lat":45.5146277,"long":-73.57221,"opened":{"0":["3"],"1":["3"],"2":["3"],"3":["3"]}},{"name":"Le Rouge Bar","tagline":"Fancy bar featuring a dance floor and DJ performances.","mood":["bar","club","money"],"popularDays":[],"popularMoment":[],"url":"https://maps.google.com/?cid=7728490486023118419","rating":3,"lat":45.51368309999999,"long":-73.5728609,"opened":{"0":[],"1":[],"2":[]}},{"name":"Rockette Bar","tagline":"Where rockers and hipsters meet.","mood":["bar","club"],"popularDays":[],"popularMoment":[],"url":"https://maps.google.com/?cid=12860999588833533788","rating":4.4,"lat":45.5239397,"long":-73.5824272,"opened":{"0":[],"1":[],"2":["3"],"3":["3"],"4":["3"],"5":[]}},{"name":"Randolph Pub Ludique Quartier Latin","tagline":"The most board games by square feets","mood":["geek","bar"],"popularDays":[],"popularMoment":[],"url":"https://maps.google.com/?cid=15556289686911738033","rating":4.7,"lat":45.51642979999999,"long":-73.5660051,"opened":{"0":["3"],"1":["3"],"2":["3"],"3":["3"],"4":["3"],"5":["3"],"6":["3"]}},{"name":"Dieu du Ciel!","tagline":"Craft brewery and terasse.","mood":["bar","lazy","date"],"popularDays":[],"popularMoment":[],"url":"https://maps.google.com/?cid=2718596132382991104","rating":4.7,"lat":45.5227334,"long":-73.5934397,"opened":{"0":["3"],"1":["3"],"2":["3"],"3":["3"],"4":["3"],"5":["3"],"6":["3"]}},{"name":"Apt. 200","tagline":"A bar you must try","mood":["bar"],"popularDays":[],"popularMoment":[],"url":"https://maps.google.com/?cid=18000206410100333840","rating":3.6,"lat":45.5143729,"long":-73.573365,"opened":{"0":["3"],"1":["3"],"2":["3"],"3":["3"],"4":["3"],"5":["3"],"6":["3"]}},{"name":"TRH-BAR","tagline":"Punk rock bar with a full fledged skate park.","mood":["sport","bar","adventurous","artsy"],"popularDays":[],"popularMoment":[],"url":"https://maps.google.com/?cid=15514103763919835179","rating":3.9,"lat":45.5148635,"long":-73.574325,"opened":{"0":[],"1":[],"2":[]}},{"name":"Complexe Sky","tagline":"Gay bar in montreal with multiple ambiances.","mood":["bar","club"],"popularDays":[],"popularMoment":[],"url":"https://maps.google.com/?cid=12551439294374128152","rating":3.8,"lat":45.520878,"long":-73.5537628,"opened":{"0":["3"],"1":["3"],"2":["3"]}},{"name":"Taverne Saint-Sacrement","tagline":"Nice bar in front of the sanctuaire saint-sacrement","mood":["bar","lunch"],"popularDays":[],"popularMoment":[],"url":"https://maps.google.com/?cid=18003544394009049071","rating":4,"lat":45.5258808,"long":-73.5814658,"opened":{"0":["3"],"1":["3"],"2":["3"],"3":["3"],"4":["3"],"5":["3"],"6":["3"]}},{"name":"2 PIERROTS","tagline":"Cabaret artists ","mood":["bar","artsy"],"popularDays":[],"popularMoment":[],"url":"https://maps.google.com/?cid=2687831810125099188","rating":4.1,"lat":45.5066054,"long":-73.5528927,"opened":{"0":["3"],"1":["3"]}},{"name":"Le Pourvoyeur","tagline":"Gin pub with small meals.","mood":["bar","lunch","date"],"popularDays":[],"popularMoment":[],"url":"https://maps.google.com/?cid=6908086816414479981","rating":4.1,"lat":45.5359941,"long":-73.6163686,"opened":{"0":["3"],"1":["3"],"2":["3"],"3":["3"],"4":["3"],"5":["3"],"6":["3"]}},{"name":"Abreuvoir Bar et Terrasse","tagline":"Sports on TV, night club, terasse... There is something for everybody.","mood":["sports","bar","club"],"popularDays":[],"popularMoment":[],"url":"https://maps.google.com/?cid=14668089707994921111","rating":3.8,"lat":45.5163269,"long":-73.5653368,"opened":{"0":["3"],"1":["3"],"2":["3"],"3":["3"],"4":["3"],"5":["3"],"6":["3"]}},{"name":"Bistro à Jojo","tagline":"Rock and blues bands.","mood":["artsy","bar"],"popularDays":[],"popularMoment":[],"url":"https://maps.google.com/?cid=16989635165847737290","rating":4.2,"lat":45.5150969,"long":-73.5630623,"opened":{"0":["3"],"1":["3"],"2":["3"],"3":["3"],"4":["3"],"5":["3"],"6":["3"]}},{"name":"La Distillerie no.1","tagline":"Amazing cocktails you've probably never tasted before.","mood":["date","money","bar"],"popularDays":[],"popularMoment":[],"url":"https://maps.google.com/?cid=5817992020718484477","rating":4.5,"lat":45.514809,"long":-73.565398,"opened":{"0":["3"],"1":["3"],"2":["3"],"3":["3"],"4":["3"],"5":["3"],"6":["3"]}},{"name":"Café Campus","tagline":"Popular student bar on 3 stories!","mood":["bar","club"],"popularDays":[],"popularMoment":[],"url":"https://maps.google.com/?cid=2487135412711669425","rating":3.7,"lat":45.5146277,"long":-73.57221,"opened":{"0":["3"],"1":["3"],"2":["3"],"3":["3"]}},{"name":"Le Rouge Bar","tagline":"Fancy bar featuring a dance floor and DJ performances.","mood":["bar","club","money"],"popularDays":[],"popularMoment":[],"url":"https://maps.google.com/?cid=7728490486023118419","rating":3,"lat":45.51368309999999,"long":-73.5728609,"opened":{"0":[],"1":[],"2":[]}},{"name":"Rockette Bar","tagline":"Where rockers and hipsters meet.","mood":["bar","club"],"popularDays":[],"popularMoment":[],"url":"https://maps.google.com/?cid=12860999588833533788","rating":4.4,"lat":45.5239397,"long":-73.5824272,"opened":{"0":[],"1":[],"2":["3"],"3":["3"],"4":["3"],"5":[]}},{"name":"New City Gas","tagline":"Raves and EDM shows in an old hangar setting.","mood":["artsy","club"],"popularDays":[],"popularMoment":[],"url":"https://maps.google.com/?cid=14179930772674609378","rating":3.6,"lat":45.49531579999999,"long":-73.5573964,"opened":{"0":[]}},{"name":"Resto-Bar La Maisonnée","tagline":"The UdeM bar.","mood":["bar","lunch"],"popularDays":[],"popularMoment":[],"url":"https://maps.google.com/?cid=17376024786837042330","rating":4.4,"lat":45.49754370000001,"long":-73.62237530000002,"opened":{"0":["3"],"1":["3"],"2":["3"],"3":["3"],"4":["3"],"5":["3"],"6":["3"]}},{"name":"L'Auberge Saint-Gabriel","tagline":"Fancy restaurant in the heart of the Old Montreal.","mood":["lunch","money","date"],"popularDays":[],"popularMoment":[],"url":"https://maps.google.com/?cid=5326195521543188179","rating":4.3,"lat":45.506428,"long":-73.5541161,"opened":{"0":[],"1":[],"2":[],"3":[],"4":[]}},{"name":"Bar Chez Serge","tagline":"Are you ready to ride the mecanical bull?","mood":["bar","sports","adventurous"],"popularDays":[],"popularMoment":[],"url":"https://maps.google.com/?cid=5933303850822584699","rating":4,"lat":45.524705,"long":-73.595835,"opened":{"0":["3"],"1":["3"],"2":["3"],"3":["3"],"4":["3"],"5":["3"]}},{"name":"Salsathèque","tagline":"Dance to tropical 70's music with DJ's and orchestras.","mood":["club","adventurous"],"popularDays":[],"popularMoment":[],"url":"https://maps.google.com/?cid=16701322253298521780","rating":4,"lat":45.4995979,"long":-73.5722737,"opened":{"0":["3"],"1":["3"],"2":["3"]}},{"name":"Taverne Bar La Remise Inc","tagline":"The place to go for a perfect karaoke night in a casual setting.","mood":["bar"],"popularDays":[],"popularMoment":[],"url":"https://maps.google.com/?cid=15607244745347513413","rating":3.8,"lat":45.529498,"long":-73.59029699999999,"opened":{"0":["3"],"1":["3"],"2":["3"],"3":["3"],"4":["3"],"5":["3"],"6":["3"]}},{"name":"Aux Verres Stérilisés Inc","tagline":"A classical montreal tavern.","mood":["bar"],"popularDays":[],"popularMoment":[],"url":"https://maps.google.com/?cid=18176949178992069502","rating":4.5,"lat":45.523582,"long":-73.57639,"opened":{"0":["3"],"1":["3"],"2":["3"],"3":["3"],"4":["3"],"5":["3"],"6":["3"]}},{"name":"Au P'tit Buck","tagline":"Cheap beer and karaoke.","mood":["bar","cheap"],"popularDays":[],"popularMoment":[],"url":"https://maps.google.com/?cid=1536972248902293997","rating":4.5,"lat":45.55332009999999,"long":-73.6019542,"opened":{"0":["3"],"1":["3"],"2":["3"],"3":["3"],"4":["3"],"5":["3"],"6":["3"]}},{"name":"Ye Olde Orchard Pub & Grill","tagline":"One of the best fish n' chips in town.","mood":["lunch","bar","money"],"popularDays":[],"popularMoment":[],"url":"https://maps.google.com/?cid=16217467223677427301","rating":4.1,"lat":45.4973421,"long":-73.57336339999999,"opened":{"0":["3"],"1":["3"],"2":["3"],"3":["3"],"4":["3"],"5":["3"],"6":["3"]}},{"name":"Irish Embassy Pub & Grill","tagline":"Saint-Patrick's day and fish n' chips.","mood":["lunch","bar","money"],"popularDays":[],"popularMoment":[],"url":"https://maps.google.com/?cid=14748807716843095833","rating":4.1,"lat":45.4959982,"long":-73.5756406,"opened":{"0":["3"],"1":["3"],"2":["3"],"3":["3"],"4":["3"],"5":["3"],"6":["3"]}},{"name":"Le 281","tagline":"The bar offered a rare form of entertainment...","mood":["bar","club","money"],"popularDays":[],"popularMoment":[],"url":"https://maps.google.com/?cid=2114274887342677268","rating":4.1,"lat":45.51083999999999,"long":-73.562725,"opened":{"0":["3"],"1":["3"],"2":["3"]}},{"name":"PUB WEST SHEFFORD","tagline":"The perfect hipster bar.","mood":["bar","artsy","money"],"popularDays":[],"popularMoment":[],"url":"https://maps.google.com/?cid=16416055164037735992","rating":4.2,"lat":45.53169800000001,"long":-73.57556799999999,"opened":{"0":["3"],"1":["3"],"2":["3"],"3":["3"],"4":["3"],"5":["3"],"6":["3"]}},{"name":"Buonanotte","tagline":"A Fast, Sexy and Intricate Ambiance","mood":["lunch","money","date","club","bar"],"popularDays":[],"popularMoment":[],"url":"https://maps.google.com/?cid=5958835125939601683","rating":3.2,"lat":45.5130005,"long":-73.571163,"opened":{"0":[],"1":[],"2":[],"3":[],"4":[],"5":["3"],"6":["3"],"7":["3"]}},{"name":"Mayfair Cocktail Bar","tagline":"BCBG Montreal.","mood":["bar","date"],"popularDays":[],"popularMoment":[],"url":"https://maps.google.com/?cid=3375009177406422291","rating":4,"lat":45.52254809999999,"long":-73.5776929,"opened":{"0":["3"],"1":["3"],"2":["3"],"3":["3"],"4":["3"]}},{"name":"Taverne Normand","tagline":"Always good vibes at this bar!","mood":["sport","lunch","bar"],"popularDays":[],"popularMoment":[],"url":"https://maps.google.com/?cid=16954651954572521652","rating":3.5,"lat":45.5315532,"long":-73.5758647,"opened":{"0":["3"],"1":["3"],"2":["3"],"3":["3"],"4":["3"],"5":["3"],"6":["3"]}},{"name":"Bar Datcha","tagline":"EDM all night!","mood":["club"],"popularDays":[],"popularMoment":[],"url":"https://maps.google.com/?cid=14560410064139813637","rating":4,"lat":45.52189569999999,"long":-73.5935476,"opened":{"0":[],"1":[],"2":[]}},{"name":"Café Gitana","tagline":"A charming shisha lounge on St-Laurent.","mood":["adventurous","bar","lazy","date"],"popularDays":[],"popularMoment":[],"url":"https://maps.google.com/?cid=12999329043030472639","rating":4.4,"lat":45.51634,"long":-73.56651699999999,"opened":{"0":["3"],"1":["3"],"2":["3"],"3":["3"],"4":["3"],"5":["3"],"6":["3"]}},{"name":"Biodome","tagline":"Come immerse yourself in five ecosystems!","mood":["animals","learn"],"popularDays":[],"popularMoment":[],"url":"https://maps.google.com/?cid=2073476261748811355","rating":4.2,"lat":45.55965450000001,"long":-73.5497189,"opened":{"0":[],"1":[],"2":[],"3":[],"4":[],"5":[]}},{"name":"Insectarium de Montréal","tagline":"Leading museum devoted to insects.","mood":["learn","adventurous"],"popularDays":[],"popularMoment":[],"url":"https://maps.google.com/?cid=10116638060984575599","rating":4.2,"lat":45.56101839999999,"long":-73.55784179999999,"opened":{"0":[],"1":[],"2":[],"3":[],"4":[],"5":[]}},{"name":"Montreal Science Centre","tagline":"Exhibits on 12 advanced industrial sectors","mood":["learn"],"popularDays":[],"popularMoment":[],"url":"https://maps.google.com/?cid=17528486736130501650","rating":4.1,"lat":45.504767,"long":-73.551667,"opened":{"0":[],"1":[],"2":[],"3":[],"4":[],"5":[],"6":[]}},{"name":"The Montreal Museum of Fine Arts","tagline":"A bold, innovative and caring museum.","mood":["learn","artsy"],"popularDays":[],"popularMoment":[],"url":"https://maps.google.com/?cid=15477020848772822448","rating":4.3,"lat":45.4985219,"long":-73.5794001,"opened":{"0":[],"1":[],"2":["1"],"3":[],"4":[],"5":[]}},{"name":"Arcade MTL","tagline":"The first arcade bar at montreal.","mood":["geek","bar"],"popularDays":[],"popularMoment":[],"url":"https://maps.google.com/?cid=11598171213387190582","rating":4.7,"lat":45.516364,"long":-73.56583599999999,"opened":{"0":["3"],"1":["3"],"2":["3"],"3":["3"],"4":["3"],"5":["3"]}},{"name":"Casino de Montréal","tagline":"An incomparable entertainment experience.","mood":["money","adventurous","bar"],"popularDays":[],"popularMoment":[],"url":"https://maps.google.com/?cid=13475805953332012097","rating":4.2,"lat":45.505391,"long":-73.52578,"opened":{"0":["1","2","3","4"]}},{"name":"Bloc Shop","tagline":"20 000 sq ft of bouldering for all levels","mood":["sport"],"popularDays":[],"popularMoment":[],"url":"https://maps.google.com/?cid=1470187561366410141","rating":4.9,"lat":45.531948,"long":-73.657777,"opened":{"0":["1"],"1":["1","2"],"2":["1","2"],"3":["1","2"],"4":["1","2"],"5":["1","2"],"6":["1"]}},{"name":"Belvedere Mont-Royal","tagline":"Go at the top, its beautiful","url":"https://maps.google.com/?cid=2028791057139663588","rating":4.7,"lat":45.5039255,"long":-73.587509,"opened":{"0":[0,1,2],"1":[0,1,2],"2":[0,1,2],"3":[0,1,2],"4":[0,1,2],"5":[0,1,2],"6":[0,1,2]},"image":"","mood":["sport","date","adventurous","cheap"],"popularDays":[],"popularMoment":[]},{"name":"Hiking Mont-Royal","tagline":"The most nature you can get in montreal","rating":4.5,"lat":45.5039255,"long":-73.587509,"opened":{"0":[0,1,2],"1":[0,1,2],"2":[0,1,2],"3":[0,1,2],"4":[0,1,2],"5":[0,1,2],"6":[0,1,2]},"mood":["sport","date","adventurous","cheap"],"popularDays":[],"popularMoment":[]},{"name":"Tam-tams Mont-Royal","tagline":"Its the festival of tam-tam. Bring your own and join the jam!","rating":4.5,"lat":45.5039255,"long":-73.587509,"opened":{"0":[0,1,2],"1":[0,1,2],"2":[0,1,2],"3":[0,1,2],"4":[0,1,2],"5":[0,1,2],"6":[0,1,2]},"mood":["artsy","cheap"],"popularDays":[],"popularMoment":[]},{"name":"Snowshoeing at Mont-Royal","tagline":"Is there snow outside? Go Snowshoeing!","rating":4.5,"lat":45.5039255,"long":-73.587509,"opened":{"0":[0,1,2],"1":[0,1,2],"2":[0,1,2],"3":[0,1,2],"4":[0,1,2],"5":[0,1,2],"6":[0,1,2]},"mood":["sport","cheap"],"popularDays":[],"popularMoment":[]},{"name":"Skate at Beaver Lake","tagline":"Take your skate and go out","rating":4.5,"lat":45.4994694,"long":-73.5959918,"opened":{"0":[0,1,2],"1":[0,1,2],"2":[0,1,2],"3":[0,1,2],"4":[0,1,2],"5":[0,1,2],"6":[0,1,2]},"mood":["sport","cheap"],"popularDays":[],"popularMoment":[]},{"name":"Picnic","tagline":"Go picnic in the nearest park","rating":4.5,"lat":45.5039255,"long":-73.587509,"opened":{"0":[0,1,2],"1":[0,1,2],"2":[0,1,2],"3":[0,1,2],"4":[0,1,2],"5":[0,1,2],"6":[0,1,2]},"mood":["cheap","lunch"],"popularDays":[],"popularMoment":[]},{"name":"Parc Jarry","rating":4.5,"lat":45.5353481,"long":-73.6282682,"opened":{"0":[0,1,2],"1":[0,1,2],"2":[0,1,2],"3":[0,1,2],"4":[0,1,2],"5":[0,1,2],"6":[0,1,2]},"tagline":"Take a walk at parc Jarry.","mood":["sport","date","cheap","study"],"popularDays":[],"popularMoment":[]},{"name":"Parc Maisonneuve","tagline":"Go run at parc maisonneuve","rating":4.5,"lat":45.56394,"long":-73.5574793,"opened":{"0":[0,1,2],"1":[0,1,2],"2":[0,1,2],"3":[0,1,2],"4":[0,1,2],"5":[0,1,2],"6":[0,1,2]},"mood":["sport","cheap","study"],"popularDays":[],"popularMoment":[]},{"name":"Dog park","tagline":"Make some friends and play with dogs","rating":4.5,"lat":45.52636380000001,"long":-73.5693448,"opened":{"0":[0,1,2],"1":[0,1,2],"2":[0,1,2],"3":[0,1,2],"4":[0,1,2],"5":[0,1,2],"6":[0,1,2]},"mood":["cheap","animals"],"popularDays":[],"popularMoment":[]},{"name":"Run at Old Port","rating":4.5,"lat":45.5043179,"long":-73.54956709999999,"opened":{"0":[0,1,2],"1":[0,1,2],"2":[0,1,2],"3":[0,1,2],"4":[0,1,2],"5":[0,1,2],"6":[0,1,2]},"tagline":"RUN FORREST RUN!!","mood":["sport","cheap"],"popularDays":[],"popularMoment":[]}]
