[{"name":"O.Noir","tagline":"Eat in total darkness.","mood":["lunch","adventurous"],"popularDays":[],"popularMoment":[],"url":"https://maps.google.com/?cid=10846218657902340389","rating":4.2,"lat":45.5150844,"long":-73.5713464,"opened":{"0":["3"],"1":["3"],"2":["3"],"3":["3"],"4":["3"],"5":["3"],"6":["3"]}},{"name":"Restaurant 3734","tagline":"Trendy resto-bar.","mood":["date","lunch"],"popularDays":[],"popularMoment":[],"url":"https://maps.google.com/?cid=4010323157375628188","rating":4.1,"lat":45.47901909999999,"long":-73.5817833,"opened":{"0":[],"1":[],"2":[],"3":[],"4":[],"5":[],"6":[],"7":[],"8":[],"9":[],"10":[],"11":[]}},{"name":"Fameux Viande Fumée Et Charcuterie","tagline":"Best Smoked meet in town","mood":["lunch","cheap"],"popularDays":[],"popularMoment":[],"url":"https://maps.google.com/?cid=18372544678616410886","rating":3.4,"lat":45.52386099999999,"long":-73.583154,"opened":{"0":["3"],"1":["3"],"2":["3"],"3":["3"],"4":["3"]}},{"name":"La Banquise","tagline":"Breakfasts, poutines and all day, all night.","mood":["lunch","cheap"],"popularDays":[],"popularMoment":[3],"url":"https://maps.google.com/?cid=10356172211970105105","rating":4.3,"lat":45.5253521,"long":-73.5747681,"opened":{"0":["1","2","3","4"]}},{"name":"CINKO","tagline":"Cheap meals for only 5$.","mood":["lunch","cheap","date","work"],"popularDays":[],"popularMoment":[1,2],"url":"https://maps.google.com/?cid=652266601461190956","rating":4,"lat":45.515122,"long":-73.56310119999999,"opened":{"0":["3"],"1":["3"],"2":["3"],"3":["3"],"4":["3"],"5":["3"],"6":["3"]}},{"name":"L’Entrepôt Mont-Royal","tagline":"Delicious beers, cocktails and 5$ food.","mood":["lunch","cheap","bar"],"popularDays":[],"popularMoment":[],"url":"https://maps.google.com/?cid=9468178804528085060","rating":4.2,"lat":45.5276679,"long":-73.579773,"opened":{"0":["3"],"1":["3"],"2":["3"],"3":["3"],"4":["3"],"5":["3"],"6":["3"]}},{"name":"Pizzeria Napoletana","tagline":"Marvelous italien meal","mood":["lunch"],"popularDays":[],"popularMoment":[],"url":"https://maps.google.com/?cid=15802365865580095740","rating":4,"lat":45.5343649,"long":-73.61256139999999,"opened":{"0":["1","2"],"1":["1","2"],"2":["1","2"],"3":["1","2"],"4":["1","2"],"5":["1","2"],"6":["1","2"]}},{"name":"McCarold's","tagline":"Many beers and whiskies ","mood":["lunch","bar","work"],"popularDays":[],"popularMoment":[],"url":"https://maps.google.com/?cid=8333270201535707635","rating":4.2,"lat":45.4966909,"long":-73.6236735,"opened":{"0":["3"],"1":["3"],"2":["3"],"3":["3"],"4":["3"],"5":["3"],"6":["3"]}},{"name":"Restaurant Boustan","tagline":"Montreal's Best Middle‑Eastern Fast Food","mood":["lunch","cheap","work"],"popularDays":[],"popularMoment":[3],"url":"https://maps.google.com/?cid=9633948780008571981","rating":4.1,"lat":45.4980227,"long":-73.5778574,"opened":{"0":[],"1":[],"2":[],"3":[],"4":[],"5":[],"6":[]}},{"name":"Au Pied de Cochon","tagline":"Cooking class or simply eat MEAT","mood":["lunch","money","date","adventurous","learn"],"popularDays":[],"popularMoment":[],"url":"https://maps.google.com/?cid=3500039342510136284","rating":4.4,"lat":45.5221677,"long":-73.5744489,"opened":{"0":["3"],"1":["3"],"2":["3"],"3":["3"],"4":["3"]}},{"name":"Café Chat L'Heureux","tagline":"Cafe for cat lovers","mood":["lazy","animals","date","lunch","adventurous"],"popularDays":[],"popularMoment":[],"url":"https://maps.google.com/?cid=6599632376253183724","rating":4.6,"lat":45.51866380000001,"long":-73.57764689999999,"opened":{"0":["1"],"1":["1"],"2":["1"],"3":["1"],"4":["1","2"],"5":["1","2"]}},{"name":"Café Venosa","tagline":"A nice sip of cofee and feline company","mood":["lazy","animals","date","lunch","adventurous"],"popularDays":[],"popularMoment":[],"url":"https://maps.google.com/?cid=1928962374377799429","rating":4.5,"lat":45.5237658,"long":-73.5818046,"opened":{"0":["1","2"],"1":["1"],"2":["1"],"3":["1"],"4":["1"],"5":["1","2"],"6":["1","2"]}},{"name":"El Rey del Taco","tagline":"Discover authentic Mexican food","mood":["lunch","cheap"],"popularDays":[],"popularMoment":[],"url":"https://maps.google.com/?cid=17877417754106546111","rating":4.1,"lat":45.5363912,"long":-73.61583879999999,"opened":{"0":["1","2"],"1":["1","2"],"2":["1","2"],"3":["1","2"],"4":["1","2"],"5":["1","2"],"6":["1","2"]}},{"name":"L'GROS LUXE","tagline":"Resto bar in the heart of Montreal's Plateau","mood":["lunch","date","bar","work"],"popularDays":[],"popularMoment":[],"url":"https://maps.google.com/?cid=8179524625016578589","rating":3.9,"lat":45.5218325,"long":-73.5702142,"opened":{"0":[],"1":[],"2":[],"3":[],"4":[],"5":[],"6":[],"7":[],"8":[]}},{"name":"Poutineville","tagline":"So many poutine choices!","mood":["lunch"],"popularDays":[],"popularMoment":[],"url":"https://maps.google.com/?cid=17045215299564167988","rating":4.3,"lat":45.5232038,"long":-73.5612988,"opened":{"0":["1","2"],"1":["1","2"],"2":["1","2"],"3":["1","2"],"4":["3"],"5":[],"6":[]}},{"name":"Les 3 Brasseurs","tagline":"Beer brewed on site!","mood":["bar","lunch"],"popularDays":[],"popularMoment":[],"url":"https://maps.google.com/?cid=9224269584721465708","rating":3.8,"lat":45.5067517,"long":-73.55307780000001,"opened":{"0":["3"],"1":["3"],"2":["3"],"3":["3"],"4":["3"],"5":["3"],"6":["3"]}},{"name":"La Belle & La Boeuf","tagline":"A nice and varied menu for everybody.","mood":["lunch","date"],"popularDays":[],"popularMoment":[],"url":"https://maps.google.com/?cid=2971399611706768493","rating":4,"lat":45.4942124,"long":-73.5785424,"opened":{"0":["3"],"1":["3"],"2":["3"],"3":["3"],"4":["3"],"5":["3"],"6":["3"]}},{"name":"Auberge Du Dragon Rouge","tagline":"Throwback a thousand years ago at the auberge.","mood":["lunch","money","adventurous"],"popularDays":[],"popularMoment":[],"url":"https://maps.google.com/?cid=16815293908799315135","rating":4.6,"lat":45.547288,"long":-73.64141099999999,"opened":{"0":[],"1":["2"],"2":[],"3":[],"4":[],"5":[],"6":[],"7":[],"8":[],"9":[],"10":[],"11":["2"]}},{"name":"Le Filet","tagline":"One of the best restaurants in Montreal.","mood":["money","lunch"],"popularDays":[],"popularMoment":[],"url":"https://maps.google.com/?cid=906425960268465507","rating":4.6,"lat":45.5180618,"long":-73.5885507,"opened":{"0":[],"1":[],"2":[],"3":[],"4":[]}},{"name":"Lola Rosa Café","tagline":"Good vegetarian comfort food","mood":["lunch","work"],"popularDays":[],"popularMoment":[],"url":"https://maps.google.com/?cid=8737629611976017673","rating":4.5,"lat":45.50733899999999,"long":-73.5758183,"opened":{"0":["1","2"],"1":["1","2"],"2":["1","2"],"3":["1","2"],"4":["1","2"],"5":["1","2"],"6":["1","2"]}},{"name":"Le Doggy Café","tagline":"Bring your own dog.","mood":["date","animals","lunch","adventurous"],"popularDays":[],"popularMoment":[],"url":"https://maps.google.com/?cid=15562596611297590220","rating":4.5,"lat":45.5329024,"long":-73.5741412,"opened":{"0":["1"],"1":["1"],"2":["1"],"3":["1"],"4":["1"],"5":["1"],"6":["1"]}},{"name":"La Panthère Verte / The Green Panther","tagline":"Not Only the Best Falafel in Town…","mood":["lunch","cheap"],"popularDays":[],"popularMoment":[],"url":"https://maps.google.com/?cid=6939970597674140011","rating":4.5,"lat":45.4841995,"long":-73.6291044,"opened":{"0":["1"],"1":["1","2"],"2":["1","2"],"3":["1","2"],"4":["1","2"],"5":["1","2"],"6":["1","2"]}},{"name":"Céramic Café Studio Montréal","tagline":"Bring your date or a friend and express yourself!","mood":["lunch","date","artsy","lazy"],"popularDays":[],"popularMoment":[],"url":"https://maps.google.com/?cid=11678809713847697044","rating":4,"lat":45.5226467,"long":-73.5804306,"opened":{"0":["1","2"],"1":["1","2"],"2":["1","2"],"3":["1","2"],"4":["3"],"5":["3"],"6":["3"]}},{"name":"Station des Sports","tagline":"Sport station in town!","mood":["sport","lunch","bar"],"popularDays":[],"popularMoment":[],"url":"https://maps.google.com/?cid=14572578762502744843","rating":3.3,"lat":45.4917836,"long":-73.58178190000001,"opened":{"0":["3"],"1":["3"],"2":["3"],"3":["3"],"4":["3"],"5":["3"],"6":["3"]}},{"name":"Caravane Café","tagline":"Hipst ambiance in Cote des Neiges.","mood":["lunch","study","lazy","date","work"],"popularDays":[],"popularMoment":[],"url":"https://maps.google.com/?cid=3278238935885951124","rating":4.4,"lat":45.4972885,"long":-73.62251619999999,"opened":{"0":["1","2"],"1":["0","1","2"],"2":["0","1","2"],"3":["0","1","2"],"4":["0","1","2"],"5":["0","1","2"],"6":["1","2"]}},{"name":"Café Noir Crémazie","tagline":"Roasted love","mood":["lunch","study","lazy","date","work"],"popularDays":[],"popularMoment":[],"url":"https://maps.google.com/?cid=12182179185906551","rating":4,"lat":45.54562190000001,"long":-73.6381056,"opened":{"0":["1","2","3","4"]}},{"name":"Café Résonance","tagline":"A trendy place featuring espresso and vegan light meals","mood":["lunch","study","work","lazy"],"popularDays":[],"popularMoment":[],"url":"https://maps.google.com/?cid=11237377514764009247","rating":4.3,"lat":45.5204219,"long":-73.5972148,"opened":{"0":["3"],"1":["3"],"2":["3"],"3":["3"],"4":["3"],"5":["3"],"6":["3"]}},{"name":"Kafein cafe-bar","tagline":"Your one stop for amazing cocktails and artistic events.","mood":["study","artsy","lunch","bar","date"],"popularDays":[],"popularMoment":[],"url":"https://maps.google.com/?cid=1096005886903807921","rating":4.2,"lat":45.49720540000001,"long":-73.5771157,"opened":{"0":["1"],"1":["3"],"2":["3"],"3":["3"],"4":["3"],"5":["3"],"6":["3"]}},{"name":"Café Shaughnessy","tagline":"For everytime you need cofee.","mood":["lunch","study","work","lazy"],"popularDays":[],"popularMoment":[],"url":"https://maps.google.com/?cid=4472606821486285722","rating":4.8,"lat":45.4908852,"long":-73.5846213,"opened":{"0":["1"],"1":["0","1"],"2":["0","1"],"3":["0","1"],"4":["0","1"],"5":["0","1"],"6":["1"]}},{"name":"La P'tite Grenouille Montréal","tagline":"Vibrate to the sound of the chansonniers","mood":["cheap","artsy","bar"],"popularDays":[],"popularMoment":[],"url":"https://maps.google.com/?cid=1906563456811471591","rating":4,"lat":45.5128836,"long":-73.5699696,"opened":{"0":["3"],"1":["3"],"2":["3"],"3":["3"],"4":["3"],"5":["3"]}},{"name":"Foufounes Électriques","tagline":"I love rock n' roll...","mood":["cheap","bar","club"],"popularDays":[],"popularMoment":[],"url":"https://maps.google.com/?cid=12629189354025610906","rating":4.1,"lat":45.511035,"long":-73.563243,"opened":{"0":["3"],"1":["3"],"2":["3"],"3":["3"],"4":["3"],"5":["3"],"6":["3"]}},{"name":"Le Belmont","tagline":"Dynamic bar with DJ's and shows.","mood":["artsy","bar","club"],"popularDays":[],"popularMoment":[],"url":"https://maps.google.com/?cid=9235940792358193595","rating":3.8,"lat":45.52011280000001,"long":-73.5861053,"opened":{"0":["3"],"1":["3"]}},{"name":"Fitzroy","tagline":"The place to play billiards and baby foot.","mood":["bar","lunch","sport"],"popularDays":[],"popularMoment":[],"url":"https://maps.google.com/?cid=9617200806629661777","rating":3.4,"lat":45.525241,"long":-73.582145,"opened":{"0":["3"],"1":["3"],"2":["3"],"3":["3"],"4":["3"],"5":["3"],"6":["3"]}},{"name":"Mckibbin's Irish Pub","tagline":"The Irish pub in town","mood":["lunch","bar","work"],"popularDays":[],"popularMoment":[],"url":"https://maps.google.com/?cid=4003474829194366751","rating":4.2,"lat":45.496857,"long":-73.5772339,"opened":{"0":["3"],"1":["3"],"2":["3"],"3":["3"],"4":["3"],"5":["3"],"6":["3"]}},{"name":"Le Sainte-Elisabeth","tagline":"Microbrewery beers and cocktails with a nice terasse.","mood":["bar"],"popularDays":[],"popularMoment":[],"url":"https://maps.google.com/?cid=10051514529163035901","rating":4,"lat":45.512346,"long":-73.562229,"opened":{"0":["3"],"1":["3"],"2":["3"],"3":["3"],"4":["3"],"5":["3"],"6":["3"]}},{"name":"Bar Le Record","tagline":"Back to the 50","mood":["bar","artsy","date"],"popularDays":[],"popularMoment":[],"url":"https://maps.google.com/?cid=5441109865271301072","rating":4.6,"lat":45.543771,"long":-73.620155,"opened":{"0":["3"],"1":["3"],"2":["3"],"3":["3"],"4":["3"],"5":["3"],"6":["3"]}},{"name":"Miss Villeray","tagline":"Monday Miss","mood":["bar","lunch"],"popularDays":[],"popularMoment":[],"url":"https://maps.google.com/?cid=15323537962417614211","rating":4.1,"lat":45.53935920000001,"long":-73.6236911,"opened":{"0":["3"],"1":["3"],"2":["3"],"3":["3"],"4":["3"],"5":["3"],"6":["3"]}}]